{
    "title": "2019-01-20-wsc",
    "content": [
        {
            "name": "Health & Personal Care Amazon FBA eCommerce Retailer - Solid YOY Growth",
            "asking_price": "47,000,000",
            "cash_flow": "8,779,435",
            "pe": "5.35",
            "location": "None",
            "city": "None",
            "state": "None",
            "img_url": "None",
            "detail_url": "None",
            "long_descr": "None",
            "listing_source": "wsc"
        },
        {
            "name": "Social Media Driven eCommerce Retailer - Women's Fashion - All Sales on Branded Website - Massive Growth",
            "asking_price": "30,000,000",
            "cash_flow": "5,896,359",
            "pe": "5.09",
            "location": "None",
            "city": "None",
            "state": "None",
            "img_url": "None",
            "detail_url": "None",
            "long_descr": "None",
            "listing_source": "wsc"
        },
        {
            "name": "Subscription-Based eCommerce Retailer in the Oral Care Space - Branded Website Sales - Immediate Scale Available into Amazon",
            "asking_price": "345,000",
            "cash_flow": "100,000",
            "pe": "3.45",
            "location": "None",
            "city": "None",
            "state": "None",
            "img_url": "None",
            "detail_url": "None",
            "long_descr": "None",
            "listing_source": "wsc"
        },
        {
            "name": "3 Baby & Kids eCommerce Websites - 10 Years in Business - Selling in Most Baby Categories",
            "asking_price": "1,250,000",
            "cash_flow": "382,992",
            "pe": "3.26",
            "location": "None",
            "city": "None",
            "state": "None",
            "img_url": "None",
            "detail_url": "None",
            "long_descr": "None",
            "listing_source": "wsc"
        },
        {
            "name": "Multi-Branded Consumer Products eCommerce Retailer in Baby",
            "asking_price": "5,500,000",
            "cash_flow": "1,211,566",
            "pe": "4.54",
            "location": "None",
            "city": "None",
            "state": "None",
            "img_url": "None",
            "detail_url": "None",
            "long_descr": "None",
            "listing_source": "wsc"
        },
        {
            "name": "Branded Eyewear & Glasses Consumer Products Company - Multiple Sales Channels - International in Scope",
            "asking_price": "4,950,000",
            "cash_flow": "1,109,580",
            "pe": "4.46",
            "location": "None",
            "city": "None",
            "state": "None",
            "img_url": "None",
            "detail_url": "None",
            "long_descr": "None",
            "listing_source": "wsc"
        },
        {
            "name": "Branded Amazon FBA Office Supplies & Kitchen Goods eCommerce Retailer",
            "asking_price": "353,000",
            "cash_flow": "88,472",
            "pe": "3.99",
            "location": "None",
            "city": "None",
            "state": "None",
            "img_url": "None",
            "detail_url": "None",
            "long_descr": "None",
            "listing_source": "wsc"
        },
        {
            "name": "Sports Nutrition Supplements Brand - eCommerce Retailer - Strong Consumer Following",
            "asking_price": "18,000,000",
            "cash_flow": "4,243,077",
            "pe": "4.24",
            "location": "None",
            "city": "None",
            "state": "None",
            "img_url": "None",
            "detail_url": "None",
            "long_descr": "None",
            "listing_source": "wsc"
        },
        {
            "name": "Nutritional Supplements & Home Goods eCommerce Retailer - 5 Separate Brands - Solid YOY Growth",
            "asking_price": "5,200,000",
            "cash_flow": "1,254,327",
            "pe": "4.15",
            "location": "None",
            "city": "None",
            "state": "None",
            "img_url": "None",
            "detail_url": "None",
            "long_descr": "None",
            "listing_source": "wsc"
        },
        {
            "name": "eCommerce Retailer in the Fashion Watch & Watchbands Space",
            "asking_price": "170,000",
            "cash_flow": "62,321",
            "pe": "2.73",
            "location": "None",
            "city": "None",
            "state": "None",
            "img_url": "None",
            "detail_url": "None",
            "long_descr": "None",
            "listing_source": "wsc"
        },
        {
            "name": "Medical Accessories",
            "asking_price": "350,000",
            "cash_flow": "82,000",
            "pe": "4.27",
            "location": "None",
            "city": "None",
            "state": "None",
            "img_url": "None",
            "detail_url": "None",
            "long_descr": "None",
            "listing_source": "wsc"
        },
        {
            "name": "Diversified",
            "asking_price": "1,500,000",
            "cash_flow": "413,500",
            "pe": "3.63",
            "location": "None",
            "city": "None",
            "state": "None",
            "img_url": "None",
            "detail_url": "None",
            "long_descr": "None",
            "listing_source": "wsc"
        },
        {
            "name": "Kitchen & Home Goods eCommerce Brand - 425% YOY Profit Growth - 40% Margins - Amazon FBA",
            "asking_price": "1,750,000",
            "cash_flow": "573,400",
            "pe": "3.05",
            "location": "None",
            "city": "None",
            "state": "None",
            "img_url": "None",
            "detail_url": "None",
            "long_descr": "None",
            "listing_source": "wsc"
        },
        {
            "name": "Custom Jewelry & Accessories eCommerce Retailer - Organically Grown DTC Website",
            "asking_price": "199,000",
            "cash_flow": "101,319",
            "pe": "1.96",
            "location": "None",
            "city": "None",
            "state": "None",
            "img_url": "None",
            "detail_url": "None",
            "long_descr": "None",
            "listing_source": "wsc"
        },
        {
            "name": "Health & Beauty Retailer in Activated Charcoal & Coconut-Based Oral Care Products",
            "asking_price": "99,000",
            "cash_flow": "33,576",
            "pe": "2.95",
            "location": "None",
            "city": "None",
            "state": "None",
            "img_url": "None",
            "detail_url": "None",
            "long_descr": "None",
            "listing_source": "wsc"
        },
        {
            "name": "High Quality Branded eCommerce Company in School",
            "asking_price": "950,000",
            "cash_flow": "280,541",
            "pe": "3.39",
            "location": "None",
            "city": "None",
            "state": "None",
            "img_url": "None",
            "detail_url": "None",
            "long_descr": "None",
            "listing_source": "wsc"
        },
        {
            "name": "5-Star Amazon UK Retailer in Home",
            "asking_price": "375,000",
            "cash_flow": "139,219",
            "pe": "2.69",
            "location": "None",
            "city": "None",
            "state": "None",
            "img_url": "None",
            "detail_url": "None",
            "long_descr": "None",
            "listing_source": "wsc"
        },
        {
            "name": "On-Demand Scholarly Content Provider",
            "asking_price": "299,000",
            "cash_flow": "105,387",
            "pe": "2.84",
            "location": "None",
            "city": "None",
            "state": "None",
            "img_url": "None",
            "detail_url": "None",
            "long_descr": "None",
            "listing_source": "wsc"
        },
        {
            "name": "Growing Amazon & eCommerce Sporting Goods & Outdoor Retailer Focused on Hunting & Hiking Gear",
            "asking_price": "499,000",
            "cash_flow": "163,000",
            "pe": "3.06",
            "location": "None",
            "city": "None",
            "state": "None",
            "img_url": "None",
            "detail_url": "None",
            "long_descr": "None",
            "listing_source": "wsc"
        },
        {
            "name": "Crowdfunding & News Website for the Cryptocurrency & ICO Marketplace",
            "asking_price": "350,000",
            "cash_flow": "150,750",
            "pe": "2.32",
            "location": "None",
            "city": "None",
            "state": "None",
            "img_url": "None",
            "detail_url": "None",
            "long_descr": "None",
            "listing_source": "wsc"
        },
        {
            "name": "Diversified DTC eCommerce Retailer in Home & Office Supplies - Over 15",
            "asking_price": "200,000",
            "cash_flow": "86,253",
            "pe": "2.32",
            "location": "None",
            "city": "None",
            "state": "None",
            "img_url": "None",
            "detail_url": "None",
            "long_descr": "None",
            "listing_source": "wsc"
        },
        {
            "name": "Women's Overstock Fashion eCommerce Retailer - Primarily eBay - 25% YOY Growth",
            "asking_price": "250,000",
            "cash_flow": "78,025",
            "pe": "3.2",
            "location": "None",
            "city": "None",
            "state": "None",
            "img_url": "None",
            "detail_url": "None",
            "long_descr": "None",
            "listing_source": "wsc"
        },
        {
            "name": "SaaS Securities Trading Platform - Monitoring",
            "asking_price": "785,000",
            "cash_flow": "243,128",
            "pe": "3.23",
            "location": "None",
            "city": "None",
            "state": "None",
            "img_url": "None",
            "detail_url": "None",
            "long_descr": "None",
            "listing_source": "wsc"
        },
        {
            "name": "18 Year Established eCommerce Retailer in High-Quality Indian Textiles",
            "asking_price": "300,000",
            "cash_flow": "123,096",
            "pe": "2.44",
            "location": "None",
            "city": "None",
            "state": "None",
            "img_url": "None",
            "detail_url": "None",
            "long_descr": "None",
            "listing_source": "wsc"
        },
        {
            "name": "Scaling Baby Products Brand - eCommerce Retailer - Sales on Amazon (U.S. and International Markets)",
            "asking_price": "1,300,000",
            "cash_flow": "352,195",
            "pe": "3.69",
            "location": "None",
            "city": "None",
            "state": "None",
            "img_url": "None",
            "detail_url": "None",
            "long_descr": "None",
            "listing_source": "wsc"
        },
        {
            "name": "Branded Skincare Company for Women - Face & Body Care - Strong Social Media Following",
            "asking_price": "600,000",
            "cash_flow": "176,821",
            "pe": "3.39",
            "location": "None",
            "city": "None",
            "state": "None",
            "img_url": "None",
            "detail_url": "None",
            "long_descr": "None",
            "listing_source": "wsc"
        },
        {
            "name": "13 Year Branded Novelty Apparel",
            "asking_price": "299,000",
            "cash_flow": "83,781",
            "pe": "3.57",
            "location": "None",
            "city": "None",
            "state": "None",
            "img_url": "None",
            "detail_url": "None",
            "long_descr": "None",
            "listing_source": "wsc"
        },
        {
            "name": "DTC Consumer Products Brand in Outdoor & Camping Gear Sector",
            "asking_price": "1,625,000",
            "cash_flow": "509,000",
            "pe": "3.19",
            "location": "None",
            "city": "None",
            "state": "None",
            "img_url": "None",
            "detail_url": "None",
            "long_descr": "None",
            "listing_source": "wsc"
        },
        {
            "name": "Niche Automobile Accessories Brand - eCommerce - Multiple Channels & Countries",
            "asking_price": "3,600,000",
            "cash_flow": "881,853",
            "pe": "4.08",
            "location": "None",
            "city": "None",
            "state": "None",
            "img_url": "None",
            "detail_url": "None",
            "long_descr": "None",
            "listing_source": "wsc"
        },
        {
            "name": "Reading Glasses & Accessories eCommerce Company - Amazon FBA",
            "asking_price": "4,500,000",
            "cash_flow": "1,102,001",
            "pe": "4.08",
            "location": "None",
            "city": "None",
            "state": "None",
            "img_url": "None",
            "detail_url": "None",
            "long_descr": "None",
            "listing_source": "wsc"
        },
        {
            "name": "Branded & Trademarked Home & Kitchen Retailer in Wine Accessories Vertical",
            "asking_price": "290,000",
            "cash_flow": "129,567",
            "pe": "2.24",
            "location": "None",
            "city": "None",
            "state": "None",
            "img_url": "None",
            "detail_url": "None",
            "long_descr": "None",
            "listing_source": "wsc"
        },
        {
            "name": "20 Year Subscription-Based Website for the Online Sports Betting Industry - Growing and Very Popular",
            "asking_price": "369,000",
            "cash_flow": "94,839",
            "pe": "3.89",
            "location": "None",
            "city": "None",
            "state": "None",
            "img_url": "None",
            "detail_url": "None",
            "long_descr": "None",
            "listing_source": "wsc"
        },
        {
            "name": "Digital Marketing & Web Development Internet Business with Reccuring Revenue",
            "asking_price": "99,000",
            "cash_flow": "42,000",
            "pe": "2.36",
            "location": "None",
            "city": "None",
            "state": "None",
            "img_url": "None",
            "detail_url": "None",
            "long_descr": "None",
            "listing_source": "wsc"
        },
        {
            "name": "Multi-Branded Vitamins & Supplements eCommerce Retailer - Primarily Amazon FBA",
            "asking_price": "4,100,000",
            "cash_flow": "1,012,581",
            "pe": "4.05",
            "location": "None",
            "city": "None",
            "state": "None",
            "img_url": "None",
            "detail_url": "None",
            "long_descr": "None",
            "listing_source": "wsc"
        },
        {
            "name": "Pet & Home Goods eCommerce Retailer - Over 100 Best Seller Tags on Amazon",
            "asking_price": "2,200,000",
            "cash_flow": "541,747",
            "pe": "4.06",
            "location": "None",
            "city": "None",
            "state": "None",
            "img_url": "None",
            "detail_url": "None",
            "long_descr": "None",
            "listing_source": "wsc"
        },
        {
            "name": "International",
            "asking_price": "469,000",
            "cash_flow": "187,683",
            "pe": "2.5",
            "location": "None",
            "city": "None",
            "state": "None",
            "img_url": "None",
            "detail_url": "None",
            "long_descr": "None",
            "listing_source": "wsc"
        },
        {
            "name": "Branded Party Supplies & Costumes eCommerce Retailer - SBA Approved",
            "asking_price": "4,950,000",
            "cash_flow": "1,308,288",
            "pe": "3.78",
            "location": "None",
            "city": "None",
            "state": "None",
            "img_url": "None",
            "detail_url": "None",
            "long_descr": "None",
            "listing_source": "wsc"
        },
        {
            "name": "Supplements & Cosmetics eCommerce Brand - Female Demographic - 6 Years History - 70% Website & 30% Amazon Sales",
            "asking_price": "1,700,000",
            "cash_flow": "518,614",
            "pe": "3.28",
            "location": "None",
            "city": "None",
            "state": "None",
            "img_url": "None",
            "detail_url": "None",
            "long_descr": "None",
            "listing_source": "wsc"
        },
        {
            "name": "Recurring Revenue",
            "asking_price": "153,000",
            "cash_flow": "51,303",
            "pe": "2.98",
            "location": "None",
            "city": "None",
            "state": "None",
            "img_url": "None",
            "detail_url": "None",
            "long_descr": "None",
            "listing_source": "wsc"
        },
        {
            "name": "Gardening & Kitchen Products Brand - Amazon FBA eCommerce Retailer",
            "asking_price": "525,000",
            "cash_flow": "149,958",
            "pe": "3.5",
            "location": "None",
            "city": "None",
            "state": "None",
            "img_url": "None",
            "detail_url": "None",
            "long_descr": "None",
            "listing_source": "wsc"
        },
        {
            "name": "9 Year Established Apparel Brand - eCommerce - All Website Sales - 3 Countries",
            "asking_price": "499,000",
            "cash_flow": "138,190",
            "pe": "3.61",
            "location": "None",
            "city": "None",
            "state": "None",
            "img_url": "None",
            "detail_url": "None",
            "long_descr": "None",
            "listing_source": "wsc"
        },
        {
            "name": "Branded Nutraceutical eCommerce Company - Multiple Supplements Brands",
            "asking_price": "14,900,000",
            "cash_flow": "3,710,444",
            "pe": "4.02",
            "location": "None",
            "city": "None",
            "state": "None",
            "img_url": "None",
            "detail_url": "None",
            "long_descr": "None",
            "listing_source": "wsc"
        },
        {
            "name": "Massive Growth Consumer Products Retailer - Pet",
            "asking_price": "13,000,000",
            "cash_flow": "3,468,900",
            "pe": "3.75",
            "location": "None",
            "city": "None",
            "state": "None",
            "img_url": "None",
            "detail_url": "None",
            "long_descr": "None",
            "listing_source": "wsc"
        },
        {
            "name": "Smartphone Photo Accessories Consumer Electronics Brand - Primarily Amazon FBA",
            "asking_price": "225,000",
            "cash_flow": "88,864",
            "pe": "2.53",
            "location": "None",
            "city": "None",
            "state": "None",
            "img_url": "None",
            "detail_url": "None",
            "long_descr": "None",
            "listing_source": "wsc"
        },
        {
            "name": "Niche Supplements Retailer - Owned Proprietary Blends - 10 Website Channels",
            "asking_price": "265,000",
            "cash_flow": "62,472",
            "pe": "4.24",
            "location": "None",
            "city": "None",
            "state": "None",
            "img_url": "None",
            "detail_url": "None",
            "long_descr": "None",
            "listing_source": "wsc"
        },
        {
            "name": "Subscription-Based",
            "asking_price": "150,000",
            "cash_flow": "61,703",
            "pe": "2.43",
            "location": "None",
            "city": "None",
            "state": "None",
            "img_url": "None",
            "detail_url": "None",
            "long_descr": "None",
            "listing_source": "wsc"
        },
        {
            "name": "Enterprise Level SaaS Managed Services Company - Identity Management & Integration",
            "asking_price": "0",
            "cash_flow": "627,006",
            "pe": "0",
            "location": "None",
            "city": "None",
            "state": "None",
            "img_url": "None",
            "detail_url": "None",
            "long_descr": "None",
            "listing_source": "wsc"
        },
        {
            "name": "Female Focused Internet Retailer in Beauty & Personal Care Segments - International Appeal - 121% YOY Growth!",
            "asking_price": "850,000",
            "cash_flow": "276,944",
            "pe": "3.07",
            "location": "None",
            "city": "None",
            "state": "None",
            "img_url": "None",
            "detail_url": "None",
            "long_descr": "None",
            "listing_source": "wsc"
        },
        {
            "name": "5-Star Amazon & eCommerce Retailer in OTC Personal Care",
            "asking_price": "1,425,000",
            "cash_flow": "404,477",
            "pe": "3.52",
            "location": "None",
            "city": "None",
            "state": "None",
            "img_url": "None",
            "detail_url": "None",
            "long_descr": "None",
            "listing_source": "wsc"
        },
        {
            "name": "Diversified eCommerce Apparel Retailer - Rash Guards & Swimwear Verticals",
            "asking_price": "875,000",
            "cash_flow": "229,769",
            "pe": "3.81",
            "location": "None",
            "city": "None",
            "state": "None",
            "img_url": "None",
            "detail_url": "None",
            "long_descr": "None",
            "listing_source": "wsc"
        },
        {
            "name": "Pet Products Brand Selling on Amazon.com (eCommerce) & Chewy.com (Wholesale)",
            "asking_price": "2,565,000",
            "cash_flow": "733,087",
            "pe": "3.5",
            "location": "None",
            "city": "None",
            "state": "None",
            "img_url": "None",
            "detail_url": "None",
            "long_descr": "None",
            "listing_source": "wsc"
        },
        {
            "name": "Shooting Targets Brand - eCommerce Retail - Amazon FBA & Branded Website Sales",
            "asking_price": "349,000",
            "cash_flow": "98,044",
            "pe": "3.56",
            "location": "None",
            "city": "None",
            "state": "None",
            "img_url": "None",
            "detail_url": "None",
            "long_descr": "None",
            "listing_source": "wsc"
        },
        {
            "name": "Established Multi-Branded Consumer Products Retailer in Fitness & Games Sectors",
            "asking_price": "599,000",
            "cash_flow": "199,334",
            "pe": "3.01",
            "location": "None",
            "city": "None",
            "state": "None",
            "img_url": "None",
            "detail_url": "None",
            "long_descr": "None",
            "listing_source": "wsc"
        },
        {
            "name": "Scaling Skincare Consumer Brand - eCommerce Retail Focused - Category Leader on Amazon",
            "asking_price": "3,300,000",
            "cash_flow": "904,128",
            "pe": "3.65",
            "location": "None",
            "city": "None",
            "state": "None",
            "img_url": "None",
            "detail_url": "None",
            "long_descr": "None",
            "listing_source": "wsc"
        },
        {
            "name": "Branded eCommerce Retailer - Cable Organization & Accessories - Large Market Share on Amazon - Great Branding",
            "asking_price": "3,460,000",
            "cash_flow": "856,054",
            "pe": "4.04",
            "location": "None",
            "city": "None",
            "state": "None",
            "img_url": "None",
            "detail_url": "None",
            "long_descr": "None",
            "listing_source": "wsc"
        },
        {
            "name": "Branded Consumer Products eCommerce Retailer in Women's Fitness Gear",
            "asking_price": "785,000",
            "cash_flow": "292,265",
            "pe": "2.69",
            "location": "None",
            "city": "None",
            "state": "None",
            "img_url": "None",
            "detail_url": "None",
            "long_descr": "None",
            "listing_source": "wsc"
        },
        {
            "name": "Vitamins",
            "asking_price": "4,230,000",
            "cash_flow": "1,075,940",
            "pe": "3.93",
            "location": "None",
            "city": "None",
            "state": "None",
            "img_url": "None",
            "detail_url": "None",
            "long_descr": "None",
            "listing_source": "wsc"
        },
        {
            "name": "News & Content Website in Commercial Fleet Industry",
            "asking_price": "159,000",
            "cash_flow": "58,221",
            "pe": "2.73",
            "location": "None",
            "city": "None",
            "state": "None",
            "img_url": "None",
            "detail_url": "None",
            "long_descr": "None",
            "listing_source": "wsc"
        },
        {
            "name": "Scaling Freelancing Platform for Writers & Employers - Website & Mobile App - B2B Internet Company",
            "asking_price": "5,300,000",
            "cash_flow": "1,322,978",
            "pe": "4.01",
            "location": "None",
            "city": "None",
            "state": "None",
            "img_url": "None",
            "detail_url": "None",
            "long_descr": "None",
            "listing_source": "wsc"
        },
        {
            "name": "Baby & Home Consumer Products Brand - eCommerce Retail - Amazon FBA",
            "asking_price": "850,000",
            "cash_flow": "251,307",
            "pe": "3.38",
            "location": "None",
            "city": "None",
            "state": "None",
            "img_url": "None",
            "detail_url": "None",
            "long_descr": "None",
            "listing_source": "wsc"
        },
        {
            "name": "High-Volume Consumer Beauty & Skincare Products Retailer - Massive Social Media Following!",
            "asking_price": "1,995,000",
            "cash_flow": "679,300",
            "pe": "2.94",
            "location": "None",
            "city": "None",
            "state": "None",
            "img_url": "None",
            "detail_url": "None",
            "long_descr": "None",
            "listing_source": "wsc"
        },
        {
            "name": "SaaS Identification Verification App Platform - #1 Ranking!",
            "asking_price": "895,000",
            "cash_flow": "229,505",
            "pe": "3.9",
            "location": "None",
            "city": "None",
            "state": "None",
            "img_url": "None",
            "detail_url": "None",
            "long_descr": "None",
            "listing_source": "wsc"
        },
        {
            "name": "Branded Party & Dining Products eCommerce Retailer - High End Plastics",
            "asking_price": "765,000",
            "cash_flow": "225,181",
            "pe": "3.4",
            "location": "None",
            "city": "None",
            "state": "None",
            "img_url": "None",
            "detail_url": "None",
            "long_descr": "None",
            "listing_source": "wsc"
        },
        {
            "name": "Private Label Vitamins and Supplements Internet Supplier / Manufacturer",
            "asking_price": "2,300,000",
            "cash_flow": "750,975",
            "pe": "3.06",
            "location": "None",
            "city": "None",
            "state": "None",
            "img_url": "None",
            "detail_url": "None",
            "long_descr": "None",
            "listing_source": "wsc"
        },
        {
            "name": "Branded Smartwatch Band Accessories eCommerce Retailer - 68% YOY Sales Growth",
            "asking_price": "1,400,000",
            "cash_flow": "345,662",
            "pe": "4.05",
            "location": "None",
            "city": "None",
            "state": "None",
            "img_url": "None",
            "detail_url": "None",
            "long_descr": "None",
            "listing_source": "wsc"
        },
        {
            "name": "Inc. 500 (#111) International Best Selling Home & Kitchen eCommerce Retailer - 4 Distinctive Brands - 3 Unique Design Patents",
            "asking_price": "12,500,000",
            "cash_flow": "2,970,200",
            "pe": "4.21",
            "location": "None",
            "city": "None",
            "state": "None",
            "img_url": "None",
            "detail_url": "None",
            "long_descr": "None",
            "listing_source": "wsc"
        },
        {
            "name": "18 Year Branded Women's Fashion Retailer in Plus Size Intimates",
            "asking_price": "1,500,000",
            "cash_flow": "298,053",
            "pe": "5.03",
            "location": "None",
            "city": "None",
            "state": "None",
            "img_url": "None",
            "detail_url": "None",
            "long_descr": "None",
            "listing_source": "wsc"
        },
        {
            "name": "Multi-brand eCommerce Retailer - Joint Therapy & Adhesives Sectors",
            "asking_price": "1,575,000",
            "cash_flow": "395,266",
            "pe": "3.98",
            "location": "None",
            "city": "None",
            "state": "None",
            "img_url": "None",
            "detail_url": "None",
            "long_descr": "None",
            "listing_source": "wsc"
        },
        {
            "name": "Baby Health & Wellness eCommerce Brand - Massive Growth Trajectory - High Demand Niche",
            "asking_price": "1,050,000",
            "cash_flow": "333,213",
            "pe": "3.15",
            "location": "None",
            "city": "None",
            "state": "None",
            "img_url": "None",
            "detail_url": "None",
            "long_descr": "None",
            "listing_source": "wsc"
        },
        {
            "name": "Computer Privacy Screen & Filters eCommerce Brand - Mostly B2B - Nice Growth",
            "asking_price": "5,300,000",
            "cash_flow": "1,178,049",
            "pe": "4.5",
            "location": "None",
            "city": "None",
            "state": "None",
            "img_url": "None",
            "detail_url": "None",
            "long_descr": "None",
            "listing_source": "wsc"
        },
        {
            "name": "Branded Pet Accessories eCommerce Company on Chewy.com & Amazon - 32 New SKUs",
            "asking_price": "2,000,000",
            "cash_flow": "423,151",
            "pe": "4.73",
            "location": "None",
            "city": "None",
            "state": "None",
            "img_url": "None",
            "detail_url": "None",
            "long_descr": "None",
            "listing_source": "wsc"
        },
        {
            "name": "Diversified Home & Health Consumer Goods Retailer",
            "asking_price": "150,000",
            "cash_flow": "90,000",
            "pe": "1.67",
            "location": "None",
            "city": "None",
            "state": "None",
            "img_url": "None",
            "detail_url": "None",
            "long_descr": "None",
            "listing_source": "wsc"
        },
        {
            "name": "Branded Sports Nutrition & Fitness Supplements Internet Company",
            "asking_price": "18,300,000",
            "cash_flow": "4,061,630",
            "pe": "4.51",
            "location": "None",
            "city": "None",
            "state": "None",
            "img_url": "None",
            "detail_url": "None",
            "long_descr": "None",
            "listing_source": "wsc"
        },
        {
            "name": "Growing E-Commerce Business in the Outdoor Clothing and Footwear Sector",
            "asking_price": "699,000",
            "cash_flow": "225,000",
            "pe": "3.11",
            "location": "None",
            "city": "None",
            "state": "None",
            "img_url": "None",
            "detail_url": "None",
            "long_descr": "None",
            "listing_source": "wsc"
        },
        {
            "name": "Massively Scaling eCommerce Retailer - Home & Sporting Goods - 5 Brands - Stellar Performer",
            "asking_price": "9,950,000",
            "cash_flow": "2,613,253",
            "pe": "3.81",
            "location": "None",
            "city": "None",
            "state": "None",
            "img_url": "None",
            "detail_url": "None",
            "long_descr": "None",
            "listing_source": "wsc"
        },
        {
            "name": "Cash Handling Equipment & Money Counting Machines Online Retailer",
            "asking_price": "120,000",
            "cash_flow": "56,513",
            "pe": "2.12",
            "location": "None",
            "city": "None",
            "state": "None",
            "img_url": "None",
            "detail_url": "None",
            "long_descr": "None",
            "listing_source": "wsc"
        },
        {
            "name": "Personal Care",
            "asking_price": "11,000,000",
            "cash_flow": "2,762,589",
            "pe": "3.98",
            "location": "None",
            "city": "None",
            "state": "None",
            "img_url": "None",
            "detail_url": "None",
            "long_descr": "None",
            "listing_source": "wsc"
        },
        {
            "name": "Branded Supplements Retailer - #1 Seller in Supplements Category on Amazon - 28",
            "asking_price": "73,000,000",
            "cash_flow": "14,200,000",
            "pe": "5.14",
            "location": "None",
            "city": "None",
            "state": "None",
            "img_url": "None",
            "detail_url": "None",
            "long_descr": "None",
            "listing_source": "wsc"
        },
        {
            "name": "International Vitamins & Supplements eCommerce Company - 2 Brands",
            "asking_price": "20,050,000",
            "cash_flow": "3,904,068",
            "pe": "5.14",
            "location": "None",
            "city": "None",
            "state": "None",
            "img_url": "None",
            "detail_url": "None",
            "long_descr": "None",
            "listing_source": "wsc"
        },
        {
            "name": "Office Supplies & Accessories eCommerce Retailer",
            "asking_price": "650,000",
            "cash_flow": "270,000",
            "pe": "2.41",
            "location": "None",
            "city": "None",
            "state": "None",
            "img_url": "None",
            "detail_url": "None",
            "long_descr": "None",
            "listing_source": "wsc"
        },
        {
            "name": "Arts & Crafts Consumer Products Retailer with International Appeal",
            "asking_price": "160,000",
            "cash_flow": "63,353",
            "pe": "2.53",
            "location": "None",
            "city": "None",
            "state": "None",
            "img_url": "None",
            "detail_url": "None",
            "long_descr": "None",
            "listing_source": "wsc"
        },
        {
            "name": "Amazon UK Account - Home",
            "asking_price": "325,000",
            "cash_flow": "116,281",
            "pe": "2.79",
            "location": "None",
            "city": "None",
            "state": "None",
            "img_url": "None",
            "detail_url": "None",
            "long_descr": "None",
            "listing_source": "wsc"
        },
        {
            "name": "Branded eCommerce Retailer in 3 Verticals - Art",
            "asking_price": "950,000",
            "cash_flow": "280,541",
            "pe": "3.39",
            "location": "None",
            "city": "None",
            "state": "None",
            "img_url": "None",
            "detail_url": "None",
            "long_descr": "None",
            "listing_source": "wsc"
        },
        {
            "name": "Branded Home Decor & Accessories eCommerce Retailer in Custom-Made Knit Products",
            "asking_price": "100,000",
            "cash_flow": "79,846",
            "pe": "1.25",
            "location": "None",
            "city": "None",
            "state": "None",
            "img_url": "None",
            "detail_url": "None",
            "long_descr": "None",
            "listing_source": "wsc"
        },
        {
            "name": "Niche eCommerce Retailer in Wine Accessories Vertical",
            "asking_price": "259,000",
            "cash_flow": "93,990",
            "pe": "2.76",
            "location": "None",
            "city": "None",
            "state": "None",
            "img_url": "None",
            "detail_url": "None",
            "long_descr": "None",
            "listing_source": "wsc"
        },
        {
            "name": "Amazon FBA Retailer in Office Supplies & Accessories",
            "asking_price": "785,000",
            "cash_flow": "270,000",
            "pe": "2.91",
            "location": "None",
            "city": "None",
            "state": "None",
            "img_url": "None",
            "detail_url": "None",
            "long_descr": "None",
            "listing_source": "wsc"
        },
        {
            "name": "Craft Supplies & Art Consumable Products Retailer",
            "asking_price": "160,000",
            "cash_flow": "63,353",
            "pe": "2.53",
            "location": "None",
            "city": "None",
            "state": "None",
            "img_url": "None",
            "detail_url": "None",
            "long_descr": "None",
            "listing_source": "wsc"
        },
        {
            "name": "Medical Device & Baby Consumer Products eCommerce Company - Huge YOY Growth",
            "asking_price": "5,500,000",
            "cash_flow": "1,573,070",
            "pe": "3.5",
            "location": "None",
            "city": "None",
            "state": "None",
            "img_url": "None",
            "detail_url": "None",
            "long_descr": "None",
            "listing_source": "wsc"
        },
        {
            "name": "Men's Fashion Accessories Brand - eCommerce Retailer - 25% Return Customer Rate",
            "asking_price": "150,000",
            "cash_flow": "43,741",
            "pe": "3.43",
            "location": "None",
            "city": "None",
            "state": "None",
            "img_url": "None",
            "detail_url": "None",
            "long_descr": "None",
            "listing_source": "wsc"
        },
        {
            "name": "Home & Office Supplies eCommerce Retailer - 30% Repeat Customer Rate",
            "asking_price": "270,000",
            "cash_flow": "86,253",
            "pe": "3.13",
            "location": "None",
            "city": "None",
            "state": "None",
            "img_url": "None",
            "detail_url": "None",
            "long_descr": "None",
            "listing_source": "wsc"
        },
        {
            "name": "Sporting Goods & Outdoor Recreational Products eCommerce Retailer - Primarily Amazon Sales",
            "asking_price": "499,000",
            "cash_flow": "163,000",
            "pe": "3.06",
            "location": "None",
            "city": "None",
            "state": "None",
            "img_url": "None",
            "detail_url": "None",
            "long_descr": "None",
            "listing_source": "wsc"
        },
        {
            "name": "Wine Accessories eCommerce Retailer - Amazon FBA - All Organic Sales",
            "asking_price": "250,000",
            "cash_flow": "73,287",
            "pe": "3.41",
            "location": "None",
            "city": "None",
            "state": "None",
            "img_url": "None",
            "detail_url": "None",
            "long_descr": "None",
            "listing_source": "wsc"
        },
        {
            "name": "Enterprise Level Consumer Products Brand Company in the Home Goods Category - Primarily Amazon FBA - Multiple Accounts",
            "asking_price": "85,000,000",
            "cash_flow": "14,045,112",
            "pe": "6.05",
            "location": "None",
            "city": "None",
            "state": "None",
            "img_url": "None",
            "detail_url": "None",
            "long_descr": "None",
            "listing_source": "wsc"
        },
        {
            "name": "Private Label Consumer Products Retailer in Skincare & Cosmetics Verticals",
            "asking_price": "625,000",
            "cash_flow": "242,928",
            "pe": "2.57",
            "location": "None",
            "city": "None",
            "state": "None",
            "img_url": "None",
            "detail_url": "None",
            "long_descr": "None",
            "listing_source": "wsc"
        },
        {
            "name": "High Growth Swimwear Brand - Amazon FBA eCommerce Retailer",
            "asking_price": "899,000",
            "cash_flow": "229,769",
            "pe": "3.91",
            "location": "None",
            "city": "None",
            "state": "None",
            "img_url": "None",
            "detail_url": "None",
            "long_descr": "None",
            "listing_source": "wsc"
        },
        {
            "name": "Branded & Diversified eCommerce Retailer of School & Art Supplies- Consistent YOY Growth!",
            "asking_price": "950,000",
            "cash_flow": "280,541",
            "pe": "3.39",
            "location": "None",
            "city": "None",
            "state": "None",
            "img_url": "None",
            "detail_url": "None",
            "long_descr": "None",
            "listing_source": "wsc"
        },
        {
            "name": "10 Year Established Web Development & Digital Marketing Provider",
            "asking_price": "120,000",
            "cash_flow": "42,000",
            "pe": "2.86",
            "location": "None",
            "city": "None",
            "state": "None",
            "img_url": "None",
            "detail_url": "None",
            "long_descr": "None",
            "listing_source": "wsc"
        },
        {
            "name": "Branded & Proprietary IP-Based Video/Content Hardware & Software eCommerce Company",
            "asking_price": "125,000",
            "cash_flow": "147,000",
            "pe": "0.85",
            "location": "None",
            "city": "None",
            "state": "None",
            "img_url": "None",
            "detail_url": "None",
            "long_descr": "None",
            "listing_source": "wsc"
        },
        {
            "name": "Private Label eCommerce Retailer in Skincare & Cosmetics Vertical - Strong Social Media!",
            "asking_price": "700,000",
            "cash_flow": "242,000",
            "pe": "2.89",
            "location": "None",
            "city": "None",
            "state": "None",
            "img_url": "None",
            "detail_url": "None",
            "long_descr": "None",
            "listing_source": "wsc"
        },
        {
            "name": "MassageChairs.com - Premium Domain on a Luxury Goods eCommerce Website",
            "asking_price": "150,000",
            "cash_flow": "69,798",
            "pe": "2.15",
            "location": "None",
            "city": "None",
            "state": "None",
            "img_url": "None",
            "detail_url": "None",
            "long_descr": "None",
            "listing_source": "wsc"
        },
        {
            "name": "Kitchen Utensils & Baking Products Brand - Primarily Amazon FBA Sales - Ripe for Growth",
            "asking_price": "2,250,000",
            "cash_flow": "601,000",
            "pe": "3.74",
            "location": "None",
            "city": "None",
            "state": "None",
            "img_url": "None",
            "detail_url": "None",
            "long_descr": "None",
            "listing_source": "wsc"
        },
        {
            "name": "Online Finance Company & eCommerce Platform for Consumer Electronics & Appliances",
            "asking_price": "625,000",
            "cash_flow": "154,027",
            "pe": "4.06",
            "location": "None",
            "city": "None",
            "state": "None",
            "img_url": "None",
            "detail_url": "None",
            "long_descr": "None",
            "listing_source": "wsc"
        },
        {
            "name": "Growing Arts & Crafts eCommerce Company - over 7",
            "asking_price": "215,000",
            "cash_flow": "98,000",
            "pe": "2.19",
            "location": "None",
            "city": "None",
            "state": "None",
            "img_url": "None",
            "detail_url": "None",
            "long_descr": "None",
            "listing_source": "wsc"
        },
        {
            "name": "Digital Marketing Agency - eCommerce and Website Clients - Monthly Retainers Average $1250 per Client",
            "asking_price": "730,000",
            "cash_flow": "225,660",
            "pe": "3.23",
            "location": "None",
            "city": "None",
            "state": "None",
            "img_url": "None",
            "detail_url": "None",
            "long_descr": "None",
            "listing_source": "wsc"
        },
        {
            "name": "Growing Consumer Products Company in 3 Sectors - Baby",
            "asking_price": "850,000",
            "cash_flow": "251,307",
            "pe": "3.38",
            "location": "None",
            "city": "None",
            "state": "None",
            "img_url": "None",
            "detail_url": "None",
            "long_descr": "None",
            "listing_source": "wsc"
        },
        {
            "name": "Consumer Products Brand in Beauty & Personal Care Categories",
            "asking_price": "849,000",
            "cash_flow": "256,586",
            "pe": "3.31",
            "location": "None",
            "city": "None",
            "state": "None",
            "img_url": "None",
            "detail_url": "None",
            "long_descr": "None",
            "listing_source": "wsc"
        },
        {
            "name": "School & Art Supplies eCommerce Retailer - 150 Branded SKUs - Primarily Amazon FBA",
            "asking_price": "1,300,000",
            "cash_flow": "301,465",
            "pe": "4.31",
            "location": "None",
            "city": "None",
            "state": "None",
            "img_url": "None",
            "detail_url": "None",
            "long_descr": "None",
            "listing_source": "wsc"
        },
        {
            "name": "7 Year DTC eCommerce Retailer in Customized Jewelry & Accessories - High Margins!",
            "asking_price": "220,000",
            "cash_flow": "101,319",
            "pe": "2.17",
            "location": "None",
            "city": "None",
            "state": "None",
            "img_url": "None",
            "detail_url": "None",
            "long_descr": "None",
            "listing_source": "wsc"
        },
        {
            "name": "Luxury Home Decor & Furnishings eCommerce Brand - Etsy",
            "asking_price": "430,000",
            "cash_flow": "123,363",
            "pe": "3.49",
            "location": "None",
            "city": "None",
            "state": "None",
            "img_url": "None",
            "detail_url": "None",
            "long_descr": "None",
            "listing_source": "wsc"
        },
        {
            "name": "Kitchen Utensils & Baking Products Brand - Primarily Amazon FBA Sales - Ripe for Growth",
            "asking_price": "2,750,000",
            "cash_flow": "748,889",
            "pe": "3.67",
            "location": "None",
            "city": "None",
            "state": "None",
            "img_url": "None",
            "detail_url": "None",
            "long_descr": "None",
            "listing_source": "wsc"
        },
        {
            "name": "Branded 5-Star Amazon & eCommerce Supplement Retailer - Above Average Metrics!",
            "asking_price": "1,690,000",
            "cash_flow": "564,481",
            "pe": "2.99",
            "location": "None",
            "city": "None",
            "state": "None",
            "img_url": "None",
            "detail_url": "None",
            "long_descr": "None",
            "listing_source": "wsc"
        },
        {
            "name": "Private Label Skincare Brand - 100% eCommerce Website Sales - Strong Social Following - Ready for Amazon",
            "asking_price": "700,000",
            "cash_flow": "209,469",
            "pe": "3.34",
            "location": "None",
            "city": "None",
            "state": "None",
            "img_url": "None",
            "detail_url": "None",
            "long_descr": "None",
            "listing_source": "wsc"
        },
        {
            "name": "Branded Office Supplies & Accessories eCommerce Retailer - Amazon FBA",
            "asking_price": "899,000",
            "cash_flow": "317,000",
            "pe": "2.84",
            "location": "None",
            "city": "None",
            "state": "None",
            "img_url": "None",
            "detail_url": "None",
            "long_descr": "None",
            "listing_source": "wsc"
        },
        {
            "name": "Branded India Textiles eCommerce Retailer - 37% YOY Growth - 2000 Unique SKUs!",
            "asking_price": "400,000",
            "cash_flow": "120,000",
            "pe": "3.33",
            "location": "None",
            "city": "None",
            "state": "None",
            "img_url": "None",
            "detail_url": "None",
            "long_descr": "None",
            "listing_source": "wsc"
        },
        {
            "name": "Large Consumer Electronics eCommerce Retailer - 7",
            "asking_price": "3,100,000",
            "cash_flow": "694,839",
            "pe": "4.46",
            "location": "None",
            "city": "None",
            "state": "None",
            "img_url": "None",
            "detail_url": "None",
            "long_descr": "None",
            "listing_source": "wsc"
        },
        {
            "name": "13 Year Lead Generation Website for RV Dealers",
            "asking_price": "699,000",
            "cash_flow": "207,000",
            "pe": "3.38",
            "location": "None",
            "city": "None",
            "state": "None",
            "img_url": "None",
            "detail_url": "None",
            "long_descr": "None",
            "listing_source": "wsc"
        },
        {
            "name": "OTC Online Pharmacy  in Health",
            "asking_price": "1,350,000",
            "cash_flow": "394,034",
            "pe": "3.43",
            "location": "None",
            "city": "None",
            "state": "None",
            "img_url": "None",
            "detail_url": "None",
            "long_descr": "None",
            "listing_source": "wsc"
        },
        {
            "name": "Subscription-Based SaaS Platform in Online Gambling Sector",
            "asking_price": "59,000",
            "cash_flow": "66,000",
            "pe": "0.89",
            "location": "None",
            "city": "None",
            "state": "None",
            "img_url": "None",
            "detail_url": "None",
            "long_descr": "None",
            "listing_source": "wsc"
        },
        {
            "name": "Amazon Mastermind Retailer - Pet & Home Goods - 153 BEST SELLER TAGS - Over 18",
            "asking_price": "1,700,000",
            "cash_flow": "866,580",
            "pe": "1.96",
            "location": "None",
            "city": "None",
            "state": "None",
            "img_url": "None",
            "detail_url": "None",
            "long_descr": "None",
            "listing_source": "wsc"
        },
        {
            "name": "Branded",
            "asking_price": "750,000",
            "cash_flow": "185,000",
            "pe": "4.05",
            "location": "None",
            "city": "None",
            "state": "None",
            "img_url": "None",
            "detail_url": "None",
            "long_descr": "None",
            "listing_source": "wsc"
        },
        {
            "name": "Branded Internet Retailer in Vaping Accessories",
            "asking_price": "899,000",
            "cash_flow": "313,071",
            "pe": "2.87",
            "location": "None",
            "city": "None",
            "state": "None",
            "img_url": "None",
            "detail_url": "None",
            "long_descr": "None",
            "listing_source": "wsc"
        },
        {
            "name": "10 Year Established Baby Products eCommerce Retailer - 2 Separate Brands - Over 250 SKUs",
            "asking_price": "1,390,000",
            "cash_flow": "419,266",
            "pe": "3.32",
            "location": "None",
            "city": "None",
            "state": "None",
            "img_url": "None",
            "detail_url": "None",
            "long_descr": "None",
            "listing_source": "wsc"
        },
        {
            "name": "Branded Consumer Products Retailer in Office Supplies Vertical - 5 Star Reviews on Amazon!",
            "asking_price": "899,000",
            "cash_flow": "314,915",
            "pe": "2.85",
            "location": "None",
            "city": "None",
            "state": "None",
            "img_url": "None",
            "detail_url": "None",
            "long_descr": "None",
            "listing_source": "wsc"
        },
        {
            "name": "9 Year Seasoned Recruiting Content Internet Services Platform",
            "asking_price": "100,000",
            "cash_flow": "28,325",
            "pe": "3.53",
            "location": "None",
            "city": "None",
            "state": "None",
            "img_url": "None",
            "detail_url": "None",
            "long_descr": "None",
            "listing_source": "wsc"
        },
        {
            "name": "14-Year Established",
            "asking_price": "850,000",
            "cash_flow": "412,000",
            "pe": "2.06",
            "location": "None",
            "city": "None",
            "state": "None",
            "img_url": "None",
            "detail_url": "None",
            "long_descr": "None",
            "listing_source": "wsc"
        },
        {
            "name": "Commercial Fleet Industry News & Content Website",
            "asking_price": "159,000",
            "cash_flow": "58,221",
            "pe": "2.73",
            "location": "None",
            "city": "None",
            "state": "None",
            "img_url": "None",
            "detail_url": "None",
            "long_descr": "None",
            "listing_source": "wsc"
        },
        {
            "name": "Unique eCommerce Retailer of International Arts & Crafts Supplies",
            "asking_price": "275,000",
            "cash_flow": "109,104",
            "pe": "2.52",
            "location": "None",
            "city": "None",
            "state": "None",
            "img_url": "None",
            "detail_url": "None",
            "long_descr": "None",
            "listing_source": "wsc"
        },
        {
            "name": "Storage Consumer Products Retailer - Amazon FBA",
            "asking_price": "1,750,000",
            "cash_flow": "442,740",
            "pe": "3.95",
            "location": "None",
            "city": "None",
            "state": "None",
            "img_url": "None",
            "detail_url": "None",
            "long_descr": "None",
            "listing_source": "wsc"
        },
        {
            "name": "Branded Consumer Products Retailer in Outdoor & Camping Gear",
            "asking_price": "2,000,000",
            "cash_flow": "607,869",
            "pe": "3.29",
            "location": "None",
            "city": "None",
            "state": "None",
            "img_url": "None",
            "detail_url": "None",
            "long_descr": "None",
            "listing_source": "wsc"
        },
        {
            "name": "Subscription-Based Online News",
            "asking_price": "307,000",
            "cash_flow": "153,850",
            "pe": "2",
            "location": "None",
            "city": "None",
            "state": "None",
            "img_url": "None",
            "detail_url": "None",
            "long_descr": "None",
            "listing_source": "wsc"
        },
        {
            "name": "Premium Chef Knives Brand - eCommerce Retailer - Designed In House - Amazon US/UK",
            "asking_price": "3,999,000",
            "cash_flow": "954,982",
            "pe": "4.19",
            "location": "None",
            "city": "None",
            "state": "None",
            "img_url": "None",
            "detail_url": "None",
            "long_descr": "None",
            "listing_source": "wsc"
        },
        {
            "name": "Diversified eCommerce Retailer in 11 Categories - Huge Social Media Following!",
            "asking_price": "325,000",
            "cash_flow": "124,800",
            "pe": "2.6",
            "location": "None",
            "city": "None",
            "state": "None",
            "img_url": "None",
            "detail_url": "None",
            "long_descr": "None",
            "listing_source": "wsc"
        },
        {
            "name": "Branded Kitchen Retailer in Barbecue Accessories Vertical",
            "asking_price": "525,000",
            "cash_flow": "183,633",
            "pe": "2.86",
            "location": "None",
            "city": "None",
            "state": "None",
            "img_url": "None",
            "detail_url": "None",
            "long_descr": "None",
            "listing_source": "wsc"
        },
        {
            "name": "Female Fashion Retailer in Hair Accessories Segment",
            "asking_price": "890,000",
            "cash_flow": "320,816",
            "pe": "2.77",
            "location": "None",
            "city": "None",
            "state": "None",
            "img_url": "None",
            "detail_url": "None",
            "long_descr": "None",
            "listing_source": "wsc"
        },
        {
            "name": "Branded eCommerce Company of IP-Based Video/Content Hardware & Software",
            "asking_price": "125,000",
            "cash_flow": "147,000",
            "pe": "0.85",
            "location": "None",
            "city": "None",
            "state": "None",
            "img_url": "None",
            "detail_url": "None",
            "long_descr": "None",
            "listing_source": "wsc"
        },
        {
            "name": "Branded eCommerce Company in Calendars & Office Supplies - 97% YOY Growth!",
            "asking_price": "500,000",
            "cash_flow": "159,809",
            "pe": "3.13",
            "location": "None",
            "city": "None",
            "state": "None",
            "img_url": "None",
            "detail_url": "None",
            "long_descr": "None",
            "listing_source": "wsc"
        },
        {
            "name": "Doctor Formulated Supplements Brand in Fertility",
            "asking_price": "850,000",
            "cash_flow": "223,748",
            "pe": "3.8",
            "location": "None",
            "city": "None",
            "state": "None",
            "img_url": "None",
            "detail_url": "None",
            "long_descr": "None",
            "listing_source": "wsc"
        },
        {
            "name": "High Quality Knit Consumer Products Retailer in Home Decor Segments",
            "asking_price": "150,000",
            "cash_flow": "79,846",
            "pe": "1.88",
            "location": "None",
            "city": "None",
            "state": "None",
            "img_url": "None",
            "detail_url": "None",
            "long_descr": "None",
            "listing_source": "wsc"
        },
        {
            "name": "Pillow & Bedding Consumer Products Brand - Amazon FBA eCommerce Sales Channel",
            "asking_price": "599,000",
            "cash_flow": "172,690",
            "pe": "3.47",
            "location": "None",
            "city": "None",
            "state": "None",
            "img_url": "None",
            "detail_url": "None",
            "long_descr": "None",
            "listing_source": "wsc"
        },
        {
            "name": "Multi-Branded Amazon & eCommerce Retailer - Diversified Offerings in Fitness Sector",
            "asking_price": "599,000",
            "cash_flow": "222,728",
            "pe": "2.69",
            "location": "None",
            "city": "None",
            "state": "None",
            "img_url": "None",
            "detail_url": "None",
            "long_descr": "None",
            "listing_source": "wsc"
        },
        {
            "name": "Beauty & Skincare eCommerce Brand - Mostly Website Sales - Big Social Media Following",
            "asking_price": "1,450,000",
            "cash_flow": "449,148",
            "pe": "3.23",
            "location": "None",
            "city": "None",
            "state": "None",
            "img_url": "None",
            "detail_url": "None",
            "long_descr": "None",
            "listing_source": "wsc"
        },
        {
            "name": "SaaS Platform in Business Communication Sector - 80% Repeat Customer Rate!",
            "asking_price": "275,000",
            "cash_flow": "92,853",
            "pe": "2.96",
            "location": "None",
            "city": "None",
            "state": "None",
            "img_url": "None",
            "detail_url": "None",
            "long_descr": "None",
            "listing_source": "wsc"
        },
        {
            "name": "MassageChairs.com - Luxury Goods eCommerce Website - $225",
            "asking_price": "195,000",
            "cash_flow": "58,505",
            "pe": "3.33",
            "location": "None",
            "city": "None",
            "state": "None",
            "img_url": "None",
            "detail_url": "None",
            "long_descr": "None",
            "listing_source": "wsc"
        },
        {
            "name": "19 Year Portfolio eCommerce Retailer -  Senior & Institutional Supplies - 10 Exact Match Domains",
            "asking_price": "975,000",
            "cash_flow": "246,930",
            "pe": "3.95",
            "location": "None",
            "city": "None",
            "state": "None",
            "img_url": "None",
            "detail_url": "None",
            "long_descr": "None",
            "listing_source": "wsc"
        },
        {
            "name": "Branded Beer & Wine Home Brewing Equipment eCommerce Retailer",
            "asking_price": "135,000",
            "cash_flow": "72,133",
            "pe": "1.87",
            "location": "None",
            "city": "None",
            "state": "None",
            "img_url": "None",
            "detail_url": "None",
            "long_descr": "None",
            "listing_source": "wsc"
        },
        {
            "name": "Female Health & Wellness Hair Care eCommerce Brand - Strong YOY Growth",
            "asking_price": "8,650,000",
            "cash_flow": "2,011,865",
            "pe": "4.3",
            "location": "None",
            "city": "None",
            "state": "None",
            "img_url": "None",
            "detail_url": "None",
            "long_descr": "None",
            "listing_source": "wsc"
        },
        {
            "name": "Digital Publishing Platform with Proprietary Technology",
            "asking_price": "1,500,000",
            "cash_flow": "335,020",
            "pe": "4.48",
            "location": "None",
            "city": "None",
            "state": "None",
            "img_url": "None",
            "detail_url": "None",
            "long_descr": "None",
            "listing_source": "wsc"
        },
        {
            "name": "Online Crowdfunding & Investment News Portal Catering to Crypto Currency",
            "asking_price": "1,350,000",
            "cash_flow": "674,985",
            "pe": "2",
            "location": "None",
            "city": "None",
            "state": "None",
            "img_url": "None",
            "detail_url": "None",
            "long_descr": "None",
            "listing_source": "wsc"
        },
        {
            "name": "Branded Consumer Products Retailer in the Kitchen & Drinkware Segments",
            "asking_price": "1,225,000",
            "cash_flow": "350,187",
            "pe": "3.5",
            "location": "None",
            "city": "None",
            "state": "None",
            "img_url": "None",
            "detail_url": "None",
            "long_descr": "None",
            "listing_source": "wsc"
        },
        {
            "name": "Organization & Storage Consumer Products Brand - Amazon FBA - Strong YOY Growth",
            "asking_price": "410,000",
            "cash_flow": "108,961",
            "pe": "3.76",
            "location": "None",
            "city": "None",
            "state": "None",
            "img_url": "None",
            "detail_url": "None",
            "long_descr": "None",
            "listing_source": "wsc"
        },
        {
            "name": "Headwear & Costume Products eCommerce Company - 11 Year Retail Veteran",
            "asking_price": "4,950,000",
            "cash_flow": "1,277,573",
            "pe": "3.87",
            "location": "None",
            "city": "None",
            "state": "None",
            "img_url": "None",
            "detail_url": "None",
            "long_descr": "None",
            "listing_source": "wsc"
        },
        {
            "name": "Branded Tools & Tool Accessories eCommerce Retailer - Amazon FBA - 22% Repeat Customer Rate",
            "asking_price": "1,750,000",
            "cash_flow": "437,784",
            "pe": "4",
            "location": "None",
            "city": "None",
            "state": "None",
            "img_url": "None",
            "detail_url": "None",
            "long_descr": "None",
            "listing_source": "wsc"
        },
        {
            "name": "Health & Beauty",
            "asking_price": "595,000",
            "cash_flow": "160,484",
            "pe": "3.71",
            "location": "None",
            "city": "None",
            "state": "None",
            "img_url": "None",
            "detail_url": "None",
            "long_descr": "None",
            "listing_source": "wsc"
        },
        {
            "name": "Skincare",
            "asking_price": "16,000,000",
            "cash_flow": "3,622,255",
            "pe": "4.42",
            "location": "None",
            "city": "None",
            "state": "None",
            "img_url": "None",
            "detail_url": "None",
            "long_descr": "None",
            "listing_source": "wsc"
        },
        {
            "name": "World Famous Doctor Formulated Probiotics Brand - 45% Repeat Customers!",
            "asking_price": "1,175,000",
            "cash_flow": "235,700",
            "pe": "4.99",
            "location": "None",
            "city": "None",
            "state": "None",
            "img_url": "None",
            "detail_url": "None",
            "long_descr": "None",
            "listing_source": "wsc"
        },
        {
            "name": "Custom-Made Motorcycle Paint eCommerce Retailer â€“ High Customer Loyalty!",
            "asking_price": "295,000",
            "cash_flow": "90,049",
            "pe": "3.28",
            "location": "None",
            "city": "None",
            "state": "None",
            "img_url": "None",
            "detail_url": "None",
            "long_descr": "None",
            "listing_source": "wsc"
        },
        {
            "name": "Fully Branded Music Accessories eCommerce Retailer - All Products Ranked 4.5 Stars & Above!",
            "asking_price": "1,900,000",
            "cash_flow": "463,008",
            "pe": "4.1",
            "location": "None",
            "city": "None",
            "state": "None",
            "img_url": "None",
            "detail_url": "None",
            "long_descr": "None",
            "listing_source": "wsc"
        },
        {
            "name": "Private Label Swimwear & Rash Guard Consumer Products Company - Primarily Amazon FBA - Multiple Sales Channels",
            "asking_price": "1,007,000",
            "cash_flow": "214,271",
            "pe": "4.7",
            "location": "None",
            "city": "None",
            "state": "None",
            "img_url": "None",
            "detail_url": "None",
            "long_descr": "None",
            "listing_source": "wsc"
        },
        {
            "name": "13 Year Nutraceuticals eCommerce Retailer in Veterinary & General Health Verticals",
            "asking_price": "110,000",
            "cash_flow": "47,446",
            "pe": "2.32",
            "location": "None",
            "city": "None",
            "state": "None",
            "img_url": "None",
            "detail_url": "None",
            "long_descr": "None",
            "listing_source": "wsc"
        },
        {
            "name": "Branded Consumer Product Retailer in Women's Fitness Gear",
            "asking_price": "855,000",
            "cash_flow": "286,000",
            "pe": "2.99",
            "location": "None",
            "city": "None",
            "state": "None",
            "img_url": "None",
            "detail_url": "None",
            "long_descr": "None",
            "listing_source": "wsc"
        },
        {
            "name": "14 Year eCommerce Website in the Law Enforcement Safety & Training Equipment Sector",
            "asking_price": "125,000",
            "cash_flow": "54,040",
            "pe": "2.31",
            "location": "None",
            "city": "None",
            "state": "None",
            "img_url": "None",
            "detail_url": "None",
            "long_descr": "None",
            "listing_source": "wsc"
        },
        {
            "name": "B2B Mobile App Hospitality Solutions Provider â€“ 7 Years of Growth",
            "asking_price": "1,095,000",
            "cash_flow": "246,840",
            "pe": "4.44",
            "location": "None",
            "city": "None",
            "state": "None",
            "img_url": "None",
            "detail_url": "None",
            "long_descr": "None",
            "listing_source": "wsc"
        },
        {
            "name": "Unique DIY Craft Retailer in Yarn & Knitting Segment",
            "asking_price": "120,000",
            "cash_flow": "46,675",
            "pe": "2.57",
            "location": "None",
            "city": "None",
            "state": "None",
            "img_url": "None",
            "detail_url": "None",
            "long_descr": "None",
            "listing_source": "wsc"
        },
        {
            "name": "Gender Neutral Apparel & Accessories eCommerce Retailer - Huge Instagram Following - 3",
            "asking_price": "425,000",
            "cash_flow": "119,515",
            "pe": "3.56",
            "location": "None",
            "city": "None",
            "state": "None",
            "img_url": "None",
            "detail_url": "None",
            "long_descr": "None",
            "listing_source": "wsc"
        },
        {
            "name": "Branded Tactical Accessories & Equipment eCommerce Company",
            "asking_price": "540,000",
            "cash_flow": "175,000",
            "pe": "3.09",
            "location": "None",
            "city": "None",
            "state": "None",
            "img_url": "None",
            "detail_url": "None",
            "long_descr": "None",
            "listing_source": "wsc"
        },
        {
            "name": "Branded Private Label Retailer in Baby & Children's Fashion Niche",
            "asking_price": "299,000",
            "cash_flow": "186,033",
            "pe": "1.61",
            "location": "None",
            "city": "None",
            "state": "None",
            "img_url": "None",
            "detail_url": "None",
            "long_descr": "None",
            "listing_source": "wsc"
        },
        {
            "name": "Branded Arts & Crafts Amazon Best Selling eCommerce Retailer",
            "asking_price": "3,579,000",
            "cash_flow": "926,049",
            "pe": "3.86",
            "location": "None",
            "city": "None",
            "state": "None",
            "img_url": "None",
            "detail_url": "None",
            "long_descr": "None",
            "listing_source": "wsc"
        },
        {
            "name": "Baby Goods & Accessories Consumer Products Brand eCommerce Retailer",
            "asking_price": "1,779,000",
            "cash_flow": "449,443",
            "pe": "3.96",
            "location": "None",
            "city": "None",
            "state": "None",
            "img_url": "None",
            "detail_url": "None",
            "long_descr": "None",
            "listing_source": "wsc"
        },
        {
            "name": "Scaling Wine Accessories eCommerce Company",
            "asking_price": "425,000",
            "cash_flow": "93,990",
            "pe": "4.52",
            "location": "None",
            "city": "None",
            "state": "None",
            "img_url": "None",
            "detail_url": "None",
            "long_descr": "None",
            "listing_source": "wsc"
        },
        {
            "name": "Proprietary Line of Little Girls Fashion Jewelry - Organic & Social Media Sales - No Ads",
            "asking_price": "210,000",
            "cash_flow": "60,014",
            "pe": "3.5",
            "location": "None",
            "city": "None",
            "state": "None",
            "img_url": "None",
            "detail_url": "None",
            "long_descr": "None",
            "listing_source": "wsc"
        },
        {
            "name": "Nutritional Supplements eCommerce Retailer - 5 Years in Business - Primarily Amazon FBA",
            "asking_price": "15,900,000",
            "cash_flow": "4,088,287",
            "pe": "3.89",
            "location": "None",
            "city": "None",
            "state": "None",
            "img_url": "None",
            "detail_url": "None",
            "long_descr": "None",
            "listing_source": "wsc"
        },
        {
            "name": "Branded Hat",
            "asking_price": "5,700,000",
            "cash_flow": "1,277,573",
            "pe": "4.46",
            "location": "None",
            "city": "None",
            "state": "None",
            "img_url": "None",
            "detail_url": "None",
            "long_descr": "None",
            "listing_source": "wsc"
        },
        {
            "name": "Copper Drinkware Brand - Wholesale and eCommerce Mix - 60% Repeat Order Rate",
            "asking_price": "550,000",
            "cash_flow": "183,468",
            "pe": "3",
            "location": "None",
            "city": "None",
            "state": "None",
            "img_url": "None",
            "detail_url": "None",
            "long_descr": "None",
            "listing_source": "wsc"
        },
        {
            "name": "Uniquely Branded Baby & Children's Fashion Retailer - Amazon FBA & eCommerce",
            "asking_price": "510,000",
            "cash_flow": "151,309",
            "pe": "3.37",
            "location": "None",
            "city": "None",
            "state": "None",
            "img_url": "None",
            "detail_url": "None",
            "long_descr": "None",
            "listing_source": "wsc"
        },
        {
            "name": "Branded Kids",
            "asking_price": "2,400,000",
            "cash_flow": "783,788",
            "pe": "3.06",
            "location": "None",
            "city": "None",
            "state": "None",
            "img_url": "None",
            "detail_url": "None",
            "long_descr": "None",
            "listing_source": "wsc"
        },
        {
            "name": "Niche eCommerce Retailer in Musical Instrument Supplies & Accessories Space",
            "asking_price": "410,000",
            "cash_flow": "112,130",
            "pe": "3.66",
            "location": "None",
            "city": "None",
            "state": "None",
            "img_url": "None",
            "detail_url": "None",
            "long_descr": "None",
            "listing_source": "wsc"
        },
        {
            "name": "Branded Arts & Crafts eCommerce Retailer - 250% YOY Growth - Pens",
            "asking_price": "625,000",
            "cash_flow": "181,406",
            "pe": "3.45",
            "location": "None",
            "city": "None",
            "state": "None",
            "img_url": "None",
            "detail_url": "None",
            "long_descr": "None",
            "listing_source": "wsc"
        },
        {
            "name": "Branded Baby Safety Gear & Home Goods eCommerce Retailer",
            "asking_price": "599,000",
            "cash_flow": "188,223",
            "pe": "3.18",
            "location": "None",
            "city": "None",
            "state": "None",
            "img_url": "None",
            "detail_url": "None",
            "long_descr": "None",
            "listing_source": "wsc"
        },
        {
            "name": "Branded Pet Products eCommerce Retailer - Chewy.com",
            "asking_price": "2,150,000",
            "cash_flow": "406,064",
            "pe": "5.29",
            "location": "None",
            "city": "None",
            "state": "None",
            "img_url": "None",
            "detail_url": "None",
            "long_descr": "None",
            "listing_source": "wsc"
        },
        {
            "name": "Whole Food Natural Supplements Brand - Massive YOY Growth - 5 Years Aged Brand",
            "asking_price": "14,500,000",
            "cash_flow": "3,598,865",
            "pe": "4.03",
            "location": "None",
            "city": "None",
            "state": "None",
            "img_url": "None",
            "detail_url": "None",
            "long_descr": "None",
            "listing_source": "wsc"
        },
        {
            "name": "Rare Taxidermy & Wildlife Art eCommerce Retailer - Very Low Competition!",
            "asking_price": "600,000",
            "cash_flow": "176,528",
            "pe": "3.4",
            "location": "None",
            "city": "None",
            "state": "None",
            "img_url": "None",
            "detail_url": "None",
            "long_descr": "None",
            "listing_source": "wsc"
        },
        {
            "name": "Home Improvement eCommerce Retailer with Proprietary Technology",
            "asking_price": "4,750,000",
            "cash_flow": "1,500,003",
            "pe": "3.17",
            "location": "None",
            "city": "None",
            "state": "None",
            "img_url": "None",
            "detail_url": "None",
            "long_descr": "None",
            "listing_source": "wsc"
        },
        {
            "name": "Serial Investor Crowdfunding Platform - Subscription Based",
            "asking_price": "1,750,000",
            "cash_flow": "553,000",
            "pe": "3.16",
            "location": "None",
            "city": "None",
            "state": "None",
            "img_url": "None",
            "detail_url": "None",
            "long_descr": "None",
            "listing_source": "wsc"
        },
        {
            "name": "Fully Branded Fly Fishing eCommerce Retailer - In-House Line of Rods",
            "asking_price": "950,000",
            "cash_flow": "284,505",
            "pe": "3.34",
            "location": "None",
            "city": "None",
            "state": "None",
            "img_url": "None",
            "detail_url": "None",
            "long_descr": "None",
            "listing_source": "wsc"
        },
        {
            "name": "Multi-Channel",
            "asking_price": "2,600,000",
            "cash_flow": "790,449",
            "pe": "3.29",
            "location": "None",
            "city": "None",
            "state": "None",
            "img_url": "None",
            "detail_url": "None",
            "long_descr": "None",
            "listing_source": "wsc"
        },
        {
            "name": "Private Label eCommerce Company in Beauty & Personal Care - Bath & Shower Consumables",
            "asking_price": "545,000",
            "cash_flow": "160,000",
            "pe": "3.41",
            "location": "None",
            "city": "None",
            "state": "None",
            "img_url": "None",
            "detail_url": "None",
            "long_descr": "None",
            "listing_source": "wsc"
        },
        {
            "name": "5 Star Amazon Japan Best Seller Retailer in Stroller & Sporting Goods Niche",
            "asking_price": "650,000",
            "cash_flow": "540,659",
            "pe": "1.2",
            "location": "None",
            "city": "None",
            "state": "None",
            "img_url": "None",
            "detail_url": "None",
            "long_descr": "None",
            "listing_source": "wsc"
        },
        {
            "name": "Branded eCommerce Retailer in Growing Vitamin & Supplements Segment",
            "asking_price": "205,000",
            "cash_flow": "68,089",
            "pe": "3.01",
            "location": "None",
            "city": "None",
            "state": "None",
            "img_url": "None",
            "detail_url": "None",
            "long_descr": "None",
            "listing_source": "wsc"
        },
        {
            "name": "Branded eCommerce Retailer in Hats & Headwear Niche",
            "asking_price": "75,000",
            "cash_flow": "58,164",
            "pe": "1.29",
            "location": "None",
            "city": "None",
            "state": "None",
            "img_url": "None",
            "detail_url": "None",
            "long_descr": "None",
            "listing_source": "wsc"
        },
        {
            "name": "Branded Beard Grooming Products eCommerce Company - Highly Rated on Amazon",
            "asking_price": "437,000",
            "cash_flow": "134,600",
            "pe": "3.25",
            "location": "None",
            "city": "None",
            "state": "None",
            "img_url": "None",
            "detail_url": "None",
            "long_descr": "None",
            "listing_source": "wsc"
        },
        {
            "name": "Amazons Choice eCommerce Retailer of US Flags - Best Seller Tags!",
            "asking_price": "2,970,000",
            "cash_flow": "683,446",
            "pe": "4.35",
            "location": "None",
            "city": "None",
            "state": "None",
            "img_url": "None",
            "detail_url": "None",
            "long_descr": "None",
            "listing_source": "wsc"
        },
        {
            "name": "eCommerce Retailer - 3 Brands - Men's Beards & Hair Care - Personal Care & Wellness - Pet Care",
            "asking_price": "3,600,000",
            "cash_flow": "917,012",
            "pe": "3.93",
            "location": "None",
            "city": "None",
            "state": "None",
            "img_url": "None",
            "detail_url": "None",
            "long_descr": "None",
            "listing_source": "wsc"
        },
        {
            "name": "Cosmetics",
            "asking_price": "4,400,000",
            "cash_flow": "1,421,588",
            "pe": "3.1",
            "location": "None",
            "city": "None",
            "state": "None",
            "img_url": "None",
            "detail_url": "None",
            "long_descr": "None",
            "listing_source": "wsc"
        },
        {
            "name": "Branded Baby & Auto Products eCommerce Retailer - 2 Private Label Brands",
            "asking_price": "3,050,000",
            "cash_flow": "764,581",
            "pe": "3.99",
            "location": "None",
            "city": "None",
            "state": "None",
            "img_url": "None",
            "detail_url": "None",
            "long_descr": "None",
            "listing_source": "wsc"
        },
        {
            "name": "Portfolio eCommerce Company - Pet Supplies",
            "asking_price": "1,225,000",
            "cash_flow": "378,797",
            "pe": "3.23",
            "location": "None",
            "city": "None",
            "state": "None",
            "img_url": "None",
            "detail_url": "None",
            "long_descr": "None",
            "listing_source": "wsc"
        },
        {
            "name": "8 Year Established Private Label Seat Cushion eCommerce Company",
            "asking_price": "265,000",
            "cash_flow": "73,124",
            "pe": "3.62",
            "location": "None",
            "city": "None",
            "state": "None",
            "img_url": "None",
            "detail_url": "None",
            "long_descr": "None",
            "listing_source": "wsc"
        },
        {
            "name": "Amazon Wall Art Retailer â€“ Branded eCommerce",
            "asking_price": "149,000",
            "cash_flow": "74,600",
            "pe": "2",
            "location": "None",
            "city": "None",
            "state": "None",
            "img_url": "None",
            "detail_url": "None",
            "long_descr": "None",
            "listing_source": "wsc"
        },
        {
            "name": "Baby & Adult Private Label Skincare eCommerce Company - 10 Years Old",
            "asking_price": "2,000,000",
            "cash_flow": "442,365",
            "pe": "4.52",
            "location": "None",
            "city": "None",
            "state": "None",
            "img_url": "None",
            "detail_url": "None",
            "long_descr": "None",
            "listing_source": "wsc"
        },
        {
            "name": "Private Label Health & Personal Wellness eCommerce Company",
            "asking_price": "3,400,000",
            "cash_flow": "800,189",
            "pe": "4.25",
            "location": "None",
            "city": "None",
            "state": "None",
            "img_url": "None",
            "detail_url": "None",
            "long_descr": "None",
            "listing_source": "wsc"
        },
        {
            "name": "Health & Wellness Digital Content Portal",
            "asking_price": "240,000",
            "cash_flow": "70,000",
            "pe": "3.43",
            "location": "None",
            "city": "None",
            "state": "None",
            "img_url": "None",
            "detail_url": "None",
            "long_descr": "None",
            "listing_source": "wsc"
        },
        {
            "name": "Top-Ranked Freeware and Shareware Software Download Portal",
            "asking_price": "1,950,000",
            "cash_flow": "470,172",
            "pe": "4.15",
            "location": "None",
            "city": "None",
            "state": "None",
            "img_url": "None",
            "detail_url": "None",
            "long_descr": "None",
            "listing_source": "wsc"
        },
        {
            "name": "Internet Company Selling Products & Services to McDonald's Franchisees",
            "asking_price": "1,300,000",
            "cash_flow": "370,941",
            "pe": "3.5",
            "location": "None",
            "city": "None",
            "state": "None",
            "img_url": "None",
            "detail_url": "None",
            "long_descr": "None",
            "listing_source": "wsc"
        },
        {
            "name": "10 Year eCommerce Retailer in the Home Improvement Segment",
            "asking_price": "1,900,000",
            "cash_flow": "504,990",
            "pe": "3.76",
            "location": "None",
            "city": "None",
            "state": "None",
            "img_url": "None",
            "detail_url": "None",
            "long_descr": "None",
            "listing_source": "wsc"
        },
        {
            "name": "High Volume Online Job Search Lead-Gen Platform",
            "asking_price": "3,600,000",
            "cash_flow": "1,073,160",
            "pe": "3.35",
            "location": "None",
            "city": "None",
            "state": "None",
            "img_url": "None",
            "detail_url": "None",
            "long_descr": "None",
            "listing_source": "wsc"
        },
        {
            "name": "Branded Organic",
            "asking_price": "349,000",
            "cash_flow": "96,912",
            "pe": "3.6",
            "location": "None",
            "city": "None",
            "state": "None",
            "img_url": "None",
            "detail_url": "None",
            "long_descr": "None",
            "listing_source": "wsc"
        },
        {
            "name": "Branded Skincare eCommerce Retailer - 80% Repeat Customer Rate",
            "asking_price": "435,000",
            "cash_flow": "161,293",
            "pe": "2.7",
            "location": "None",
            "city": "None",
            "state": "None",
            "img_url": "None",
            "detail_url": "None",
            "long_descr": "None",
            "listing_source": "wsc"
        },
        {
            "name": "Best Selling Amazon Retailer in Home Goods Segment",
            "asking_price": "2,240,000",
            "cash_flow": "639,476",
            "pe": "3.5",
            "location": "None",
            "city": "None",
            "state": "None",
            "img_url": "None",
            "detail_url": "None",
            "long_descr": "None",
            "listing_source": "wsc"
        },
        {
            "name": "Amazon FBA Business - 2 Brands - High Growth - Sport & Fitness Space",
            "asking_price": "2,200,000",
            "cash_flow": "555,281",
            "pe": "3.96",
            "location": "None",
            "city": "None",
            "state": "None",
            "img_url": "None",
            "detail_url": "None",
            "long_descr": "None",
            "listing_source": "wsc"
        },
        {
            "name": "Established Collector Sports Cards eCommerce Business",
            "asking_price": "345,000",
            "cash_flow": "65,000",
            "pe": "5.31",
            "location": "None",
            "city": "None",
            "state": "None",
            "img_url": "None",
            "detail_url": "None",
            "long_descr": "None",
            "listing_source": "wsc"
        }
    ]
}